[{"name":"Allenton","center":{"lat":-43.8877332,"lng":171.74336949999997}},{"name":"Chertsey","center":{"lat":-43.8025914,"lng":171.93542879999995}},{"name":"Ashburton","center":{"lat":-43.90838129999999,"lng":171.74856720000002}},{"name":"Fairton","center":{"lat":-43.8703127,"lng":171.81651899999997}},{"name":"Hinds","center":{"lat":-44.0023227,"lng":171.57003150000003}},{"name":"Mount Somers","center":{"lat":-43.70431199999999,"lng":171.40007489999994}},{"name":"Elgin","center":{"lat":-43.9496482,"lng":171.80645329999993}},{"name":"Hampstead","center":{"lat":-43.9122658,"lng":171.75680090000003}},{"name":"Methven","center":{"lat":-43.63371919999999,"lng":171.64695210000002}},{"name":"Netherby","center":{"lat":-43.8959117,"lng":171.76079920000006}},{"name":"Huntingdon","center":{"lat":-43.9868493,"lng":171.73680339999999}},{"name":"Rakaia","center":{"lat":-43.7560736,"lng":172.0225696}},{"name":"Winslow","center":{"lat":-43.953095,"lng":171.6582767}},{"name":"Tinwald","center":{"lat":-43.9185088,"lng":171.72308799999996}},{"name":"Albany","center":{"lat":-36.725942,"lng":174.69831279999994}},{"name":"Albany Heights","center":{"lat":-36.7225839,"lng":174.69868580000002}},{"name":"Algies Bay","center":{"lat":-36.4319864,"lng":174.73828400000002}},{"name":"Arkles Bay","center":{"lat":-36.6389776,"lng":174.74351189999993}},{"name":"Army Bay","center":{"lat":-36.6036453,"lng":174.80220280000003}},{"name":"Auckland Central","center":{"lat":-36.8484597,"lng":174.76333150000005}},{"name":"Avondale","center":{"lat":-36.894517,"lng":174.69652399999995}},{"name":"Awhitu","center":{"lat":-37.0827899,"lng":174.6355714}},{"name":"Bayswater","center":{"lat":-36.8129703,"lng":174.78005410000003}},{"name":"Bayview","center":{"lat":-36.7729126,"lng":174.70858640000006}},{"name":"Beach Haven","center":{"lat":-36.7919539,"lng":174.68740300000002}},{"name":"Beachlands","center":{"lat":-36.8876036,"lng":175.00319450000006}},{"name":"Belmont","center":{"lat":-41.1942599,"lng":174.92289529999994}},{"name":"Bethells Beach","center":{"lat":-36.8921571,"lng":174.44877989999998}},{"name":"Birkdale","center":{"lat":-36.7966811,"lng":174.70089010000004}},{"name":"Birkenhead","center":{"lat":-36.8099428,"lng":174.72803739999995}},{"name":"Blockhouse Bay","center":{"lat":-36.9233601,"lng":174.69999970000003}},{"name":"Bombay","center":{"lat":-37.1854554,"lng":174.99675560000003}},{"name":"Botany Downs","center":{"lat":-36.9092959,"lng":174.9174997}},{"name":"Browns Bay","center":{"lat":-36.7144266,"lng":174.74702260000004}},{"name":"Buckland","center":{"lat":-37.227794,"lng":174.92724899999996}},{"name":"Bucklands Beach","center":{"lat":-36.8689359,"lng":174.90617240000006}},{"name":"Burswood","center":{"lat":-36.9262725,"lng":174.89447459999997}},{"name":"Campbells Bay","center":{"lat":-36.7467982,"lng":174.76127099999997}},{"name":"Castor Bay","center":{"lat":-36.7579305,"lng":174.76677310000002}},{"name":"Chatswood","center":{"lat":-36.8151249,"lng":174.7164662}},{"name":"Clarks Beach","center":{"lat":-37.1355486,"lng":174.70203830000003}},{"name":"Clendon Park","center":{"lat":-37.0271997,"lng":174.8660979}},{"name":"Clevedon","center":{"lat":-36.9947086,"lng":175.03635329999997}},{"name":"Clover Park","center":{"lat":-36.9824544,"lng":174.8937631}},{"name":"Cockle Bay","center":{"lat":-36.9043484,"lng":174.93840669999997}},{"name":"Conifer Grove","center":{"lat":-37.04449930000001,"lng":174.91227359999993}},{"name":"Dairy Flat","center":{"lat":-36.6664831,"lng":174.6389587}},{"name":"Dannemora","center":{"lat":-36.9292773,"lng":174.9222711}},{"name":"Devonport","center":{"lat":-36.8274402,"lng":174.79669549999994}},{"name":"Dome Forest","center":{"lat":-36.3853162,"lng":174.58911050000006}},{"name":"Drury","center":{"lat":-37.1027678,"lng":174.95170630000007}},{"name":"East Tamaki","center":{"lat":-36.9432115,"lng":174.89367700000003}},{"name":"East Tamaki Heights","center":{"lat":-36.9412791,"lng":174.91772809999998}},{"name":"Eastern Beach","center":{"lat":-36.8771689,"lng":174.91232820000005}},{"name":"Eden Terrace","center":{"lat":-36.8661391,"lng":174.7578727}},{"name":"Ellerslie","center":{"lat":-36.8977747,"lng":174.80902430000003}},{"name":"Epsom","center":{"lat":-36.8936302,"lng":174.77433329999997}},{"name":"Fairview Heights","center":{"lat":-36.7169637,"lng":174.71410790000004}},{"name":"Farm Cove","center":{"lat":-36.8962529,"lng":174.88848840000003}},{"name":"Favona","center":{"lat":-36.9525182,"lng":174.80031959999997}},{"name":"Flat Bush","center":{"lat":-36.9609517,"lng":174.92612669999994}},{"name":"Forrest Hill","center":{"lat":-36.7631726,"lng":174.74845519999997}},{"name":"Freemans Bay","center":{"lat":-36.8515427,"lng":174.74877219999996}},{"name":"Glen Eden","center":{"lat":-36.90991229999999,"lng":174.65070630000002}},{"name":"Glen Innes","center":{"lat":-36.8778678,"lng":174.85687280000002}},{"name":"Glenbrook","center":{"lat":-37.2028026,"lng":174.7540004}},{"name":"Glendene","center":{"lat":-36.8905147,"lng":174.65609410000002}},{"name":"Glendowie","center":{"lat":-36.8603096,"lng":174.86930180000002}},{"name":"Glenfield","center":{"lat":-36.782031,"lng":174.720907}},{"name":"Golflands","center":{"lat":-36.9256034,"lng":174.90885600000001}},{"name":"Goodwood Heights","center":{"lat":-36.9970894,"lng":174.89496580000002}},{"name":"Grafton","center":{"lat":-36.8603985,"lng":174.76691749999998}},{"name":"Great Barrier Island (Aotea Island)","center":{"lat":-36.1972824,"lng":175.41692109999997}},{"name":"Green Bay","center":{"lat":-36.9311652,"lng":174.67645140000002}},{"name":"Greenhithe","center":{"lat":-36.77294029999999,"lng":174.67573130000005}},{"name":"Greenlane","center":{"lat":-36.89162940000001,"lng":174.79243710000003}},{"name":"Grey Lynn","center":{"lat":-36.8651021,"lng":174.73749509999993}},{"name":"Gulf Harbour","center":{"lat":-36.6139307,"lng":174.79096300000003}},{"name":"Half Moon Bay","center":{"lat":-36.8896702,"lng":174.89888599999995}},{"name":"Hatfields Beach","center":{"lat":-36.5693139,"lng":174.69156780000003}},{"name":"Hauraki","center":{"lat":-36.7974324,"lng":174.77942159999998}},{"name":"Helensville","center":{"lat":-36.6775241,"lng":174.4503793}},{"name":"Henderson","center":{"lat":-36.8739289,"lng":174.6277245}},{"name":"Henderson Valley","center":{"lat":-36.8970219,"lng":174.59599950000006}},{"name":"Herald Island","center":{"lat":-36.77870490000001,"lng":174.6551723}},{"name":"Herne Bay","center":{"lat":-36.8482874,"lng":174.73017370000002}},{"name":"Highland Park","center":{"lat":-36.8999037,"lng":174.90550580000001}},{"name":"Hillcrest","center":{"lat":-36.78749870000001,"lng":174.7428215}},{"name":"Hillsborough","center":{"lat":-36.9221936,"lng":174.75429329999997}},{"name":"Hobsonville","center":{"lat":-36.7983712,"lng":174.64742999999999}},{"name":"Howick","center":{"lat":-36.8929478,"lng":174.9243831}},{"name":"Huapai","center":{"lat":-36.772106,"lng":174.54424310000002}},{"name":"Huia","center":{"lat":-36.9984274,"lng":174.56641130000003}},{"name":"Huntington Park","center":{"lat":-36.9325747,"lng":174.90559580000001}},{"name":"Kaipara Flats","center":{"lat":-36.4064529,"lng":174.5459211}},{"name":"Kaiwaka","center":{"lat":-36.1612445,"lng":174.44341039999995}},{"name":"Karaka","center":{"lat":-37.10025419999999,"lng":174.8774012}},{"name":"Karekare","center":{"lat":-35.2286099,"lng":173.94779210000002}},{"name":"Kawakawa Bay","center":{"lat":-36.9481614,"lng":175.1689612}},{"name":"Kawau Island","center":{"lat":-36.4180983,"lng":174.86200540000004}},{"name":"Kelston","center":{"lat":-36.8983504,"lng":174.66434040000001}},{"name":"Kingseat","center":{"lat":-37.1305203,"lng":174.80372710000006}},{"name":"Kingsland","center":{"lat":-36.8707173,"lng":174.74692890000006}},{"name":"Kohimarama","center":{"lat":-36.8505084,"lng":174.84489510000003}},{"name":"Kumeu","center":{"lat":-36.7772623,"lng":174.55880189999993}},{"name":"Laingholm","center":{"lat":-36.9778817,"lng":174.6318218}},{"name":"Leigh","center":{"lat":-36.2913656,"lng":174.80296799999996}},{"name":"Long Bay","center":{"lat":-36.6815372,"lng":174.74615140000003}},{"name":"Lucas Heights","center":{"lat":-36.7422383,"lng":174.67442930000004}},{"name":"Lynfield","center":{"lat":-36.9286072,"lng":174.72030989999996}},{"name":"Mahurangi East","center":{"lat":-36.4753287,"lng":174.73287359999995}},{"name":"Mahurangi West","center":{"lat":-36.4992038,"lng":174.6977958}},{"name":"Mairangi Bay","center":{"lat":-36.7384397,"lng":174.75323619999995}},{"name":"Makarau","center":{"lat":-36.5507492,"lng":174.49304570000004}},{"name":"Mangawhai","center":{"lat":-36.1261904,"lng":174.5744737}},{"name":"Mangere","center":{"lat":-36.9686277,"lng":174.79368720000002}},{"name":"Mangere Bridge","center":{"lat":-36.9456531,"lng":174.78256710000005}},{"name":"Mangere East","center":{"lat":-36.9661212,"lng":174.82589630000007}},{"name":"Manly","center":{"lat":-36.6296649,"lng":174.75893810000002}},{"name":"Manukau","center":{"lat":-36.9941017,"lng":174.87266}},{"name":"Manukau Heads","center":{"lat":-37.0507126,"lng":174.5615494}},{"name":"Manurewa","center":{"lat":-37.0236736,"lng":174.89828050000006}},{"name":"Manurewa East","center":{"lat":-37.0217508,"lng":174.90366199999994}},{"name":"Maraetai","center":{"lat":-36.8798027,"lng":175.03476009999997}},{"name":"Massey","center":{"lat":-36.8221931,"lng":174.6135994}},{"name":"Matakana","center":{"lat":-36.3522309,"lng":174.7175757}},{"name":"Matakatia","center":{"lat":-36.6238557,"lng":174.77366069999994}},{"name":"Mauku","center":{"lat":-37.2047402,"lng":174.8201434}},{"name":"Meadowbank","center":{"lat":-36.87011990000001,"lng":174.82704569999999}},{"name":"Mellons Bay","center":{"lat":-36.8904742,"lng":174.937277}},{"name":"Milford","center":{"lat":-36.7723629,"lng":174.76395049999996}},{"name":"Mission Bay","center":{"lat":-36.8482476,"lng":174.83177290000003}},{"name":"Morningside","center":{"lat":-35.7346658,"lng":174.31996559999993}},{"name":"Mount Albert","center":{"lat":-36.8841017,"lng":174.71559189999994}},{"name":"Mount Eden","center":{"lat":-36.8801967,"lng":174.76164990000007}},{"name":"Mount Roskill","center":{"lat":-36.9046678,"lng":174.74169400000005}},{"name":"Mount Wellington","center":{"lat":-36.9084854,"lng":174.8387404}},{"name":"Muriwai","center":{"lat":-36.8362109,"lng":174.4340691}},{"name":"Murrays Bay","center":{"lat":-36.730099,"lng":174.75158869999996}},{"name":"Narrow Neck","center":{"lat":-36.8141366,"lng":174.79332709999994}},{"name":"New Lynn","center":{"lat":-36.9055201,"lng":174.68602729999998}},{"name":"New Windsor","center":{"lat":-36.9071094,"lng":174.7134797}},{"name":"Newmarket","center":{"lat":-36.8698367,"lng":174.77758010000002}},{"name":"Northcote","center":{"lat":-36.8027257,"lng":174.74423419999994}},{"name":"Northcote Point","center":{"lat":-36.8155585,"lng":174.7454073}},{"name":"Northcross","center":{"lat":-36.7091709,"lng":174.72778649999998}},{"name":"Northpark","center":{"lat":-36.9290978,"lng":174.9140721}},{"name":"Okura","center":{"lat":-36.6755564,"lng":174.71971170000006}},{"name":"Omaha","center":{"lat":-36.3301625,"lng":174.77481750000004}},{"name":"Omiha","center":{"lat":-36.8191097,"lng":175.05809829999998}},{"name":"One Tree Hill","center":{"lat":-36.9052355,"lng":174.78928459999997}},{"name":"Onehunga","center":{"lat":-36.9227811,"lng":174.78519719999997}},{"name":"Oneroa","center":{"lat":-36.7873197,"lng":175.02204540000002}},{"name":"Onetangi","center":{"lat":-36.78792869999999,"lng":175.08122730000002}},{"name":"Opaheke","center":{"lat":-37.0862386,"lng":174.96173049999993}},{"name":"Orakei","center":{"lat":-36.8574631,"lng":174.8101815}},{"name":"Oratia","center":{"lat":-36.9129751,"lng":174.6182807}},{"name":"Orere Point","center":{"lat":-36.9609298,"lng":175.2404639}},{"name":"Orewa","center":{"lat":-36.5815524,"lng":174.68995189999998}},{"name":"Ostend","center":{"lat":-36.7958925,"lng":175.04851080000003}},{"name":"Otahuhu","center":{"lat":-36.9453153,"lng":174.84505060000004}},{"name":"Otara","center":{"lat":-36.9625101,"lng":174.87179400000002}},{"name":"Oteha","center":{"lat":-36.720168,"lng":174.71717669999998}},{"name":"Paerata","center":{"lat":-37.1698157,"lng":174.89763170000003}},{"name":"Pahurehure","center":{"lat":-37.0678664,"lng":174.93063830000006}},{"name":"Pakiri","center":{"lat":-36.2641719,"lng":174.72725779999996}},{"name":"Pakuranga","center":{"lat":-36.9116458,"lng":174.8707326}},{"name":"Pakuranga Heights","center":{"lat":-36.9160727,"lng":174.88902689999998}},{"name":"Palm Beach","center":{"lat":-36.7809886,"lng":175.0436939}},{"name":"Panmure","center":{"lat":-36.9015818,"lng":174.85425480000004}},{"name":"Papakura","center":{"lat":-37.0677049,"lng":174.94361760000004}},{"name":"Papatoetoe","center":{"lat":-36.9793805,"lng":174.85570469999993}},{"name":"Parakai","center":{"lat":-36.6582349,"lng":174.43025360000001}},{"name":"Parau","center":{"lat":-36.9682251,"lng":174.614463}},{"name":"Paremoremo","center":{"lat":-36.75821090000001,"lng":174.65074759999993}},{"name":"Parnell","center":{"lat":-36.8540654,"lng":174.77987919999998}},{"name":"Patumahoe","center":{"lat":-37.1877507,"lng":174.82933349999996}},{"name":"Penrose","center":{"lat":-36.9074171,"lng":174.8119451}},{"name":"Piha","center":{"lat":-36.9530211,"lng":174.4688092}},{"name":"Pinehill","center":{"lat":-36.7275232,"lng":174.71968719999995}},{"name":"Point Chevalier","center":{"lat":-36.862213,"lng":174.70851419999997}},{"name":"Point England","center":{"lat":-36.8846888,"lng":174.85732480000001}},{"name":"Point Wells","center":{"lat":-36.323471,"lng":174.75624530000005}},{"name":"Pollok","center":{"lat":-37.139021,"lng":174.61777600000005}},{"name":"Ponsonby","center":{"lat":-36.8487779,"lng":174.7380663}},{"name":"Port Albert","center":{"lat":-36.2829309,"lng":174.43424400000004}},{"name":"Puhoi","center":{"lat":-36.5151025,"lng":174.66281589999994}},{"name":"Pukekohe","center":{"lat":-37.20213,"lng":174.90351269999996}},{"name":"Rakino Island","center":{"lat":-36.7207731,"lng":174.94793779999998}},{"name":"Randwick Park","center":{"lat":-37.0191636,"lng":174.9130368}},{"name":"Ranui","center":{"lat":-36.86385509999999,"lng":174.6024053}},{"name":"Red Beach","center":{"lat":-36.6025056,"lng":174.69453120000003}},{"name":"Red Hill","center":{"lat":-37.0716565,"lng":174.97702619999995}},{"name":"Remuera","center":{"lat":-36.8789906,"lng":174.81208600000002}},{"name":"Riverhead","center":{"lat":-36.7580001,"lng":174.59184589999995}},{"name":"Rosedale","center":{"lat":-36.7465278,"lng":174.73565640000004}},{"name":"Rosehill","center":{"lat":-37.0778571,"lng":174.9369299}},{"name":"Rothesay Bay","center":{"lat":-36.7262855,"lng":174.7412561}},{"name":"Royal Oak","center":{"lat":-36.9117871,"lng":174.776076}},{"name":"Saint Johns","center":{"lat":-36.8744477,"lng":174.83045319999997}},{"name":"Saint Marys Bay","center":{"lat":-36.84516139999999,"lng":174.74829279999994}},{"name":"Sandringham","center":{"lat":-36.8836131,"lng":174.73888920000002}},{"name":"Sandspit","center":{"lat":-36.3927977,"lng":174.72238100000004}},{"name":"Schnapper Rock","center":{"lat":-36.7550265,"lng":174.69569780000006}},{"name":"Shamrock Park","center":{"lat":-36.9236049,"lng":174.93198919999998}},{"name":"Shelly Beach","center":{"lat":-36.5701946,"lng":174.3761032}},{"name":"Shelly Park","center":{"lat":-36.9102543,"lng":174.9450961}},{"name":"Silverdale","center":{"lat":-36.6188173,"lng":174.67687999999998}},{"name":"Snells Beach","center":{"lat":-36.4204551,"lng":174.72406380000007}},{"name":"Somerville","center":{"lat":-36.9132773,"lng":174.92774029999998}},{"name":"St Heliers","center":{"lat":-36.85134499999999,"lng":174.85790889999998}},{"name":"Stanley Point","center":{"lat":-36.8286792,"lng":174.7880933}},{"name":"Stanmore Bay","center":{"lat":-36.6258298,"lng":174.73014669999998}},{"name":"Stillwater","center":{"lat":-36.6367277,"lng":174.71272469999997}},{"name":"Stonefields","center":{"lat":-36.8879415,"lng":174.83854659999997}},{"name":"Sunnyhills","center":{"lat":-36.9033539,"lng":174.88270090000003}},{"name":"Sunnynook","center":{"lat":-36.7583396,"lng":174.7391199}},{"name":"Sunnyvale","center":{"lat":-36.8981097,"lng":174.63224430000002}},{"name":"Surfdale","center":{"lat":-36.7949042,"lng":175.02917809999997}},{"name":"Swanson","center":{"lat":-36.86567840000001,"lng":174.57980329999998}},{"name":"Takanini","center":{"lat":-37.0396793,"lng":174.92410199999995}},{"name":"Takapuna","center":{"lat":-36.7879229,"lng":174.7688207}},{"name":"Tapora","center":{"lat":-36.3510721,"lng":174.30232309999997}},{"name":"Tawharanui Peninsula","center":{"lat":-36.3809207,"lng":174.75974889999998}},{"name":"Te Atatu Peninsula","center":{"lat":-36.8412139,"lng":174.65179250000006}},{"name":"Te Atatu South","center":{"lat":-36.8655788,"lng":174.6471001}},{"name":"Te Hana","center":{"lat":-36.255513,"lng":174.5093031}},{"name":"The Gardens","center":{"lat":-37.0121577,"lng":174.9138421}},{"name":"Three Kings","center":{"lat":-36.9094083,"lng":174.75587310000003}},{"name":"Ti Point","center":{"lat":-36.3171614,"lng":174.79003020000005}},{"name":"Tindalls Beach","center":{"lat":-36.6214067,"lng":174.7727506}},{"name":"Titirangi","center":{"lat":-36.9381822,"lng":174.6540764}},{"name":"Torbay","center":{"lat":-36.6960056,"lng":174.7522093}},{"name":"Totara Heights","center":{"lat":-37.0021202,"lng":174.90142420000006}},{"name":"Totara Vale","center":{"lat":-36.759635,"lng":174.73349740000003}},{"name":"Unsworth Heights","center":{"lat":-36.7530706,"lng":174.72142600000006}},{"name":"Wai O Taiki Bay","center":{"lat":-36.8750452,"lng":174.8815469}},{"name":"Waiake","center":{"lat":-36.7070877,"lng":174.74966270000004}},{"name":"Waiatarua","center":{"lat":-36.9339297,"lng":174.57848860000001}},{"name":"Waiau Pa","center":{"lat":-37.137571,"lng":174.75254760000007}},{"name":"Waiheke Island","center":{"lat":-36.7978867,"lng":175.11279160000004}},{"name":"Waimauku","center":{"lat":-36.768496,"lng":174.49235999999996}},{"name":"Wainui","center":{"lat":-36.60094530000001,"lng":174.5919841}},{"name":"Waitakere","center":{"lat":-36.8504238,"lng":174.54254019999996}},{"name":"Waitoki","center":{"lat":-36.6346044,"lng":174.55122529999994}},{"name":"Waiuku","center":{"lat":-37.2479443,"lng":174.73399089999998}},{"name":"Waiwera","center":{"lat":-36.5433675,"lng":174.70391129999996}},{"name":"Warkworth","center":{"lat":-36.3986866,"lng":174.66050930000006}},{"name":"Waterview","center":{"lat":-36.8796693,"lng":174.70213349999995}},{"name":"Wattle Downs","center":{"lat":-37.0499147,"lng":174.88159970000004}},{"name":"Wellsford","center":{"lat":-36.29397180000001,"lng":174.5239093}},{"name":"West Harbour","center":{"lat":-36.8187874,"lng":174.62963639999998}},{"name":"Westmere","center":{"lat":-36.8554709,"lng":174.71986000000004}},{"name":"Weymouth","center":{"lat":-37.0467968,"lng":174.86350070000003}},{"name":"Whakatiwai","center":{"lat":-37.0892512,"lng":175.30185270000004}},{"name":"Whangateau","center":{"lat":-36.3115774,"lng":174.76947940000002}},{"name":"Whenuapai","center":{"lat":-36.789319,"lng":174.6222801}},{"name":"Windsor Park","center":{"lat":-36.74483,"lng":174.73693579999997}},{"name":"Wiri","center":{"lat":-37.00227940000001,"lng":174.86536090000004}},{"name":"Aro Valley","center":{"lat":-41.2953564,"lng":174.76698069999998}},{"name":"Churton Park","center":{"lat":-41.2069993,"lng":174.80834260000006}},{"name":"Brooklyn","center":{"lat":-41.0987155,"lng":172.96746429999996}},{"name":"Grenada North","center":{"lat":-41.1859063,"lng":174.83705859999998}},{"name":"Berhampore","center":{"lat":-41.3214871,"lng":174.77518599999996}},{"name":"Grenada Village","center":{"lat":-41.2074503,"lng":174.82038579999994}},{"name":"Kelburn","center":{"lat":-41.289265,"lng":174.76247539999997}},{"name":"Johnsonville","center":{"lat":-41.2226192,"lng":174.8054161}},{"name":"Kilbirnie","center":{"lat":-41.3190933,"lng":174.79596459999993}},{"name":"Island Bay","center":{"lat":-41.3357294,"lng":174.77322589999994}},{"name":"Miramar","center":{"lat":-41.31688159999999,"lng":174.81756569999993}},{"name":"Mount Cook","center":{"lat":-43.5949749,"lng":170.14178830000003}},{"name":"Newlands","center":{"lat":-41.2236672,"lng":174.82330780000007}},{"name":"Northland","center":{"lat":-35.5795461,"lng":173.76240529999995}},{"name":"Newtown","center":{"lat":-41.3109306,"lng":174.77901210000005}},{"name":"Paparangi","center":{"lat":-41.2142073,"lng":174.81681720000006}},{"name":"Crofton Downs","center":{"lat":-41.2559196,"lng":174.76534860000004}},{"name":"Broadmeadows","center":{"lat":-41.2356832,"lng":174.79583839999998}},{"name":"Oriental Bay","center":{"lat":-41.2913069,"lng":174.79410819999998}},{"name":"Pipitea","center":{"lat":-41.2801935,"lng":174.7801624}},{"name":"Hataitai","center":{"lat":-41.3040762,"lng":174.79428789999997}},{"name":"Karori","center":{"lat":-41.2837551,"lng":174.74087450000002}},{"name":"Houghton Bay","center":{"lat":-41.3415596,"lng":174.78528359999996}},{"name":"Khandallah","center":{"lat":-41.2442571,"lng":174.79113529999995}},{"name":"Kaiwharawhara","center":{"lat":-41.2601762,"lng":174.78971920000004}},{"name":"Te Aro","center":{"lat":-41.2954521,"lng":174.77707179999993}},{"name":"Highbury","center":{"lat":-40.361511,"lng":175.57967029999998}},{"name":"Maupuia","center":{"lat":-41.303408,"lng":174.8201517}},{"name":"Tawa","center":{"lat":-41.1703099,"lng":174.82491460000006}},{"name":"Karaka Bays","center":{"lat":-41.3044234,"lng":174.83130230000006}},{"name":"Lyall Bay","center":{"lat":-41.326947,"lng":174.795344}},{"name":"Southgate","center":{"lat":-41.33513809999999,"lng":174.78218530000004}},{"name":"Kingston","center":{"lat":-45.3321502,"lng":168.7149323}},{"name":"Mornington","center":{"lat":-45.881625,"lng":170.48176190000004}},{"name":"Melrose","center":{"lat":-41.3231055,"lng":174.78915729999994}},{"name":"Thorndon","center":{"lat":-41.2766027,"lng":174.77776600000004}},{"name":"Ngaio","center":{"lat":-41.2512681,"lng":174.77323879999994}},{"name":"Mount Victoria","center":{"lat":-41.2964998,"lng":174.78535550000004}},{"name":"Ohariu","center":{"lat":-41.2084873,"lng":174.77313019999997}},{"name":"Owhiro Bay","center":{"lat":-41.3444293,"lng":174.75923039999998}},{"name":"Rongotai","center":{"lat":-41.3235178,"lng":174.8040658}},{"name":"Roseneath","center":{"lat":-41.2877209,"lng":174.80227909999996}},{"name":"Seatoun","center":{"lat":-41.3246143,"lng":174.83200650000003}},{"name":"Strathmore Park","center":{"lat":-41.3283751,"lng":174.81815200000005}},{"name":"Vogeltown","center":{"lat":-41.3139356,"lng":174.76941420000003}},{"name":"Wadestown","center":{"lat":-41.2617773,"lng":174.77355179999995}},{"name":"Wilton","center":{"lat":-41.2678206,"lng":174.76142720000007}},{"name":"Wellington Central","center":{"lat":-41.2864257,"lng":174.77624420000006}},{"name":"Woodridge","center":{"lat":-41.2166601,"lng":174.8299647}},{"name":"Avondale","center":{"lat":-36.894517,"lng":174.69652399999995}},{"name":"Avonhead","center":{"lat":-43.5146873,"lng":172.5539794}},{"name":"Bishopdale","center":{"lat":-43.487792,"lng":172.587218}},{"name":"Aranui","center":{"lat":-43.5102623,"lng":172.70665840000004}},{"name":"Beckenham","center":{"lat":-43.5650385,"lng":172.64277219999997}},{"name":"Avonside","center":{"lat":-43.521705,"lng":172.6659919}},{"name":"Bromley","center":{"lat":-43.5361639,"lng":172.69388449999997}},{"name":"Broomfield","center":{"lat":-43.118392,"lng":172.6863664}},{"name":"Addington","center":{"lat":-43.54409889999999,"lng":172.6107134}},{"name":"Corsair Bay","center":{"lat":-43.6064644,"lng":172.6996011}},{"name":"Dallington","center":{"lat":-43.51354070000001,"lng":172.6739506}},{"name":"Clifton","center":{"lat":-39.6404338,"lng":177.00537469999995}},{"name":"Ferrymead","center":{"lat":-43.5672501,"lng":172.7027974}},{"name":"Fendalton","center":{"lat":-43.5194555,"lng":172.60120110000003}},{"name":"Burwood","center":{"lat":-43.4995792,"lng":172.68275530000005}},{"name":"Hillmorton","center":{"lat":-43.5569924,"lng":172.5830532}},{"name":"Hillsborough","center":{"lat":-36.9221936,"lng":174.75429329999997}},{"name":"Hei Hei","center":{"lat":-43.5331252,"lng":172.52528389999998}},{"name":"Hornby","center":{"lat":-43.5432865,"lng":172.52712150000002}},{"name":"Bryndwr","center":{"lat":-43.5048733,"lng":172.59194130000003}},{"name":"Akaroa","center":{"lat":-43.8036657,"lng":172.96826209999995}},{"name":"Casebrook","center":{"lat":-43.4772647,"lng":172.6067832}},{"name":"Belfast","center":{"lat":-43.45118979999999,"lng":172.62796179999998}},{"name":"Cracroft","center":{"lat":-43.5822492,"lng":172.61049830000002}},{"name":"Cashmere","center":{"lat":-43.56791550000001,"lng":172.62678700000004}},{"name":"Huntsbury","center":{"lat":-43.5678287,"lng":172.6531089}},{"name":"Diamond Harbour","center":{"lat":-43.62882510000001,"lng":172.72607270000003}},{"name":"Duvauchelle","center":{"lat":-43.7503819,"lng":172.93335939999997}},{"name":"Governors Bay","center":{"lat":-43.6227301,"lng":172.64888510000003}},{"name":"Le Bons Bay","center":{"lat":-43.7622063,"lng":173.05747580000002}},{"name":"Cass Bay","center":{"lat":-43.6032957,"lng":172.69319110000004}},{"name":"Kainga","center":{"lat":-43.4109738,"lng":172.66339140000002}},{"name":"Christchurch Central","center":{"lat":-43.5320544,"lng":172.63622540000006}},{"name":"Edgeware","center":{"lat":-43.5134354,"lng":172.6474971}},{"name":"Marshland","center":{"lat":-43.4745334,"lng":172.65491940000004}},{"name":"Ilam","center":{"lat":-43.5168359,"lng":172.57197769999993}},{"name":"Burnside","center":{"lat":-43.5095946,"lng":172.57579179999993}},{"name":"Heathcote Valley","center":{"lat":-43.5781616,"lng":172.7106754}},{"name":"Hoon Hay","center":{"lat":-43.5644933,"lng":172.6089627}},{"name":"Harewood","center":{"lat":-43.4732592,"lng":172.56355259999998}},{"name":"Halswell","center":{"lat":-43.5854361,"lng":172.57107150000002}},{"name":"North New Brighton","center":{"lat":-43.4912974,"lng":172.71899110000004}},{"name":"Mount Pleasant","center":{"lat":-41.3275554,"lng":173.97043439999993}},{"name":"Lyttelton","center":{"lat":-43.6032583,"lng":172.71932270000002}},{"name":"Northwood","center":{"lat":-43.4581493,"lng":172.61404160000006}},{"name":"Kennedys Bush","center":{"lat":-43.6033412,"lng":172.58131990000004}},{"name":"Mairehau","center":{"lat":-43.4976758,"lng":172.64288669999996}},{"name":"Islington","center":{"lat":-43.5409155,"lng":172.51178470000002}},{"name":"Little River","center":{"lat":-43.7723842,"lng":172.78962060000003}},{"name":"Linwood","center":{"lat":-43.5324277,"lng":172.67422729999998}},{"name":"Merivale","center":{"lat":-43.5117988,"lng":172.62159010000005}},{"name":"Middleton","center":{"lat":-43.5442039,"lng":172.59094349999998}},{"name":"Northcote","center":{"lat":-36.8027257,"lng":174.74423419999994}},{"name":"Opawa","center":{"lat":-43.5550988,"lng":172.6622115}},{"name":"Redcliffs","center":{"lat":-43.5611507,"lng":172.73786810000001}},{"name":"Redwood","center":{"lat":-43.4737047,"lng":172.6173202}},{"name":"New Brighton","center":{"lat":-43.507332,"lng":172.72932549999996}},{"name":"Rapaki","center":{"lat":-43.6040147,"lng":172.67949150000004}},{"name":"Richmond","center":{"lat":-41.3384657,"lng":173.18380860000002}},{"name":"Prebbleton","center":{"lat":-43.5806271,"lng":172.51242109999998}},{"name":"Riccarton","center":{"lat":-43.52996210000001,"lng":172.5971551}},{"name":"Spreydon","center":{"lat":-43.5567538,"lng":172.61833120000006}},{"name":"Saint Martins","center":{"lat":-43.555463,"lng":172.65177919999996}},{"name":"Russley","center":{"lat":-43.51734769999999,"lng":172.53602869999997}},{"name":"Robinsons Bay","center":{"lat":-43.7575735,"lng":172.96933390000004}},{"name":"Sydenham","center":{"lat":-43.547065,"lng":172.63679149999996}},{"name":"Saint Albans","center":{"lat":-43.5051811,"lng":172.6274651}},{"name":"Takamatua","center":{"lat":-43.7831238,"lng":172.96949459999996}},{"name":"Parklands","center":{"lat":-43.4812356,"lng":172.70455070000003}},{"name":"Tai Tapu","center":{"lat":-43.6613666,"lng":172.5480536}},{"name":"Papanui","center":{"lat":-43.4970653,"lng":172.6079208}},{"name":"Phillipstown","center":{"lat":-43.5355372,"lng":172.66359480000006}},{"name":"Port Levy","center":{"lat":-43.6492118,"lng":172.81908959999998}},{"name":"Pigeon Bay","center":{"lat":-43.6881778,"lng":172.89454380000006}},{"name":"Strowan","center":{"lat":-43.5101008,"lng":172.60679600000003}},{"name":"Somerfield","center":{"lat":-43.559294,"lng":172.63291920000006}},{"name":"Sumner","center":{"lat":-43.5753531,"lng":172.76257439999995}},{"name":"Sockburn","center":{"lat":-43.5328697,"lng":172.55704190000006}},{"name":"Southshore","center":{"lat":-43.548919,"lng":172.74693509999997}},{"name":"Shirley","center":{"lat":-43.5079595,"lng":172.66525379999996}},{"name":"Scarborough","center":{"lat":-44.43435059999999,"lng":171.24861320000002}},{"name":"South New Brighton","center":{"lat":-43.5301489,"lng":172.73952029999998}},{"name":"Templeton","center":{"lat":-43.5531349,"lng":172.47780579999994}},{"name":"Woolston","center":{"lat":-43.5473746,"lng":172.67904550000003}},{"name":"Waimairi Beach","center":{"lat":-43.4820843,"lng":172.71968319999996}},{"name":"Wainoni","center":{"lat":-43.5175886,"lng":172.6863002}},{"name":"Waltham","center":{"lat":-43.5482831,"lng":172.65297550000003}},{"name":"Upper Riccarton","center":{"lat":-43.5319765,"lng":172.57373000000007}},{"name":"Yaldhurst","center":{"lat":-43.5127278,"lng":172.50880510000002}},{"name":"Westmorland","center":{"lat":-43.5801023,"lng":172.60262820000003}},{"name":"Wigram","center":{"lat":-43.5509148,"lng":172.5667548}},{"name":"Wainui","center":{"lat":-36.60094530000001,"lng":174.5919841}},{"name":"Akina","center":{"lat":-39.6509559,"lng":176.84521399999994}},{"name":"Flaxmere","center":{"lat":-39.6215403,"lng":176.7840718}},{"name":"Bay View","center":{"lat":-39.4203572,"lng":176.86746429999994}},{"name":"Frimley","center":{"lat":-39.6218119,"lng":176.82696310000006}},{"name":"Crownthorpe","center":{"lat":-39.55457610000001,"lng":176.66665209999996}},{"name":"Hastings","center":{"lat":-39.6395783,"lng":176.83923219999997}},{"name":"Otane","center":{"lat":-39.8965835,"lng":176.62842369999998}},{"name":"Mayfair","center":{"lat":-39.6363571,"lng":176.85588529999995}},{"name":"Poukawa","center":{"lat":-39.7610203,"lng":176.72735520000003}},{"name":"Poraiti","center":{"lat":-39.4891508,"lng":176.8364884}},{"name":"Puketapu","center":{"lat":-39.5096953,"lng":176.78967880000005}},{"name":"Raureka","center":{"lat":-39.644704,"lng":176.82846340000003}},{"name":"Clive","center":{"lat":-39.5837084,"lng":176.91570890000003}},{"name":"Eskdale","center":{"lat":-39.3947559,"lng":176.84535419999997}},{"name":"Camberley","center":{"lat":-39.6282409,"lng":176.82218349999994}},{"name":"Bridge Pa","center":{"lat":-39.6494745,"lng":176.75681899999995}},{"name":"Longlands","center":{"lat":-39.6669258,"lng":176.81453209999995}},{"name":"Haumoana","center":{"lat":-39.6034908,"lng":176.94655969999997}},{"name":"Mahora","center":{"lat":-39.6278939,"lng":176.84993399999996}},{"name":"Meeanee","center":{"lat":-39.5432015,"lng":176.88771369999995}},{"name":"Havelock North","center":{"lat":-39.670354,"lng":176.87642800000003}},{"name":"Maraekakaho","center":{"lat":-39.651692,"lng":176.6180786}},{"name":"Parkvale","center":{"lat":-39.6508587,"lng":176.85879209999996}},{"name":"Roys Hill","center":{"lat":-39.6252273,"lng":176.72417629999995}},{"name":"Tikokino","center":{"lat":-39.8212529,"lng":176.45782180000003}},{"name":"Waipatu","center":{"lat":-39.6295128,"lng":176.8728198}},{"name":"Waimarama","center":{"lat":-39.8158567,"lng":176.98893420000002}},{"name":"Te Awanga","center":{"lat":-39.6336816,"lng":176.9796076}},{"name":"Waiohiki","center":{"lat":-39.5581471,"lng":176.83413900000005}},{"name":"Taradale","center":{"lat":-39.5365944,"lng":176.84920969999996}},{"name":"Whakatu","center":{"lat":-39.6037348,"lng":176.89209970000002}},{"name":"Twyford","center":{"lat":-39.6012469,"lng":176.79632960000004}},{"name":"Saint Leonards","center":{"lat":-39.6334235,"lng":176.83418889999996}},{"name":"Beerescourt","center":{"lat":-37.7682815,"lng":175.2620534}},{"name":"Bader","center":{"lat":-37.8087036,"lng":175.29260060000001}},{"name":"Burbush","center":{"lat":-37.75040080000001,"lng":175.20497839999996}},{"name":"Dinsdale","center":{"lat":-37.79673289999999,"lng":175.2398809}},{"name":"Frankton","center":{"lat":-37.7890455,"lng":175.25966659999995}},{"name":"Flagstaff","center":{"lat":-37.7397148,"lng":175.25470629999995}},{"name":"Forest Lake","center":{"lat":-37.7712192,"lng":175.25744529999997}},{"name":"Baverstock","center":{"lat":-37.7664693,"lng":175.21830509999995}},{"name":"Deanwell","center":{"lat":-37.8208395,"lng":175.27651730000002}},{"name":"Claudelands","center":{"lat":-37.7760871,"lng":175.28550080000002}},{"name":"Glenview","center":{"lat":-37.8230823,"lng":175.28964540000004}},{"name":"Hamilton Lake","center":{"lat":-37.7981293,"lng":175.28078260000007}},{"name":"Maeroa","center":{"lat":-37.7781517,"lng":175.2590219}},{"name":"Chartwell","center":{"lat":-37.7583102,"lng":175.27702820000002}},{"name":"Huntington","center":{"lat":-37.7310557,"lng":175.2804297}},{"name":"Fairfield","center":{"lat":-37.7701169,"lng":175.2821596}},{"name":"Enderley","center":{"lat":-37.7704285,"lng":175.2978064}},{"name":"Fairview Downs","center":{"lat":-37.762497,"lng":175.30438379999998}},{"name":"Fitzroy","center":{"lat":-39.0494197,"lng":174.1017508}},{"name":"Grandview Heights","center":{"lat":-37.7826001,"lng":175.2256698}},{"name":"Hamilton East","center":{"lat":-37.7904099,"lng":175.29228450000005}},{"name":"Harrowfield","center":{"lat":-37.7424972,"lng":175.25636980000002}},{"name":"Tamahere","center":{"lat":-37.8263598,"lng":175.35379480000006}},{"name":"Rototuna","center":{"lat":-37.7332265,"lng":175.26815639999995}},{"name":"Queenwood","center":{"lat":-37.7489607,"lng":175.26567279999995}},{"name":"Te Kowhai","center":{"lat":-37.7383184,"lng":175.15422839999997}},{"name":"Puketaha","center":{"lat":-37.7200092,"lng":175.32818369999995}},{"name":"Hamilton Central","center":{"lat":-37.7870012,"lng":175.27925300000004}},{"name":"Rototuna North","center":{"lat":-37.7306306,"lng":175.26613410000004}},{"name":"Temple View","center":{"lat":-37.8217376,"lng":175.22630030000005}},{"name":"Melville","center":{"lat":-37.810968,"lng":175.28163670000004}},{"name":"Hillcrest","center":{"lat":-36.78749870000001,"lng":174.7428215}},{"name":"Nawton","center":{"lat":-37.776992,"lng":175.23531550000007}},{"name":"Whitiora","center":{"lat":-37.7775045,"lng":175.274365}},{"name":"Western Heights","center":{"lat":-37.7906037,"lng":175.22974279999994}},{"name":"Newstead","center":{"lat":-37.7828884,"lng":175.3514732}},{"name":"Saint Andrews","center":{"lat":-44.5301269,"lng":171.1906219}},{"name":"Rukuhia","center":{"lat":-37.8522451,"lng":175.30597290000003}},{"name":"Pukete","center":{"lat":-37.742634,"lng":175.23941679999996}},{"name":"Riverlea","center":{"lat":-39.4336495,"lng":174.08380599999998}},{"name":"Silverdale","center":{"lat":-36.6188173,"lng":174.67687999999998}},{"name":"Chedworth","center":{"lat":-37.7520173,"lng":175.28591099999994}}]