[{"name":"Allenton","center":{"lat":-43.8877332,"lng":171.74336949999997}},{"name":"Chertsey","center":{"lat":-43.8025914,"lng":171.93542879999995}},{"name":"Ashburton","center":{"lat":-43.90838129999999,"lng":171.74856720000002}},{"name":"Fairton","center":{"lat":-43.8703127,"lng":171.81651899999997}},{"name":"Hinds","center":{"lat":-44.0023227,"lng":171.57003150000003}},{"name":"Mount Somers","center":{"lat":-43.70431199999999,"lng":171.40007489999994}},{"name":"Elgin","center":{"lat":-43.9496482,"lng":171.80645329999993}},{"name":"Hampstead","center":{"lat":-43.9122658,"lng":171.75680090000003}},{"name":"Methven","center":{"lat":-43.63371919999999,"lng":171.64695210000002}},{"name":"Netherby","center":{"lat":-43.8959117,"lng":171.76079920000006}},{"name":"Huntingdon","center":{"lat":-43.9868493,"lng":171.73680339999999}},{"name":"Rakaia","center":{"lat":-43.7560736,"lng":172.0225696}},{"name":"Winslow","center":{"lat":-43.953095,"lng":171.6582767}},{"name":"Tinwald","center":{"lat":-43.9185088,"lng":171.72308799999996}}]